[{"label": "焼津神社", "url": "https://maps.app.goo.gl/5euf4zw6eezQ6fCWA", "lat": 34.86593, "lng": 138.31459}, {"label": "四区会所", "url": "https://maps.app.goo.gl/dtXtLFaRFSPd8kAB9", "lat": 34.865455, "lng": 138.31678}, {"label": "御沓脱", "url": "https://maps.app.goo.gl/Ee2XHQ6oJMJo2Mbz5", "lat": 34.866112, "lng": 138.318123}, {"label": "焼津警察署中央交番", "url": "https://maps.app.goo.gl/YeH87NMC6kUruYUe7", "lat": 34.863671, "lng": 138.31809}, {"label": "水校通り", "url": "https://maps.app.goo.gl/bFkyir5ExwASyRSL6", "lat": 34.863613, "lng": 138.318745}, {"label": "塩川新聞舗", "url": "https://maps.app.goo.gl/CFrQ6NpWVa2Bpusc8", "lat": 34.866835, "lng": 138.319678}, {"label": "浅草通り", "url": "https://maps.app.goo.gl/1yWWfYh7MdYtM6o36", "lat": 34.866453, "lng": 138.321124}, {"label": "アトレ焼津", "url": "https://maps.app.goo.gl/Gndx9iHNucTi3Pc4A", "lat": 34.86344, "lng": 138.320205}, {"label": "しずおか焼津信金", "url": "https://maps.app.goo.gl/Gndx9iHNucTi3Pc4A", "lat": 34.86344, "lng": 138.320205}, {"label": "神武通り", "url": "https://maps.app.goo.gl/WzmupfBLiPNBFhbu9", "lat": 34.863188, "lng": 138.321739}, {"label": "二区会所", "url": "https://maps.app.goo.gl/z6Gfa999n3GHz8CL8", "lat": 34.861364, "lng": 138.32131}, {"label": "静銀", "url": "https://maps.app.goo.gl/ZvG7MVG5JJrcBrH6A", "lat": 34.863112, "lng": 138.32215}, {"label": "中央通り", "url": "https://maps.app.goo.gl/kQTCWtBAxSf1MFTh9", "lat": 34.863031, "lng": 138.322652}, {"label": "田子重", "url": "https://maps.app.goo.gl/o895LxNkZJdiqQ3H9", "lat": 34.857875, "lng": 138.321953}, {"label": "八雲通り", "url": "https://maps.app.goo.gl/Wh6fS4cGPAN5mNQg7", "lat": 34.857709, "lng": 138.323701}, {"label": "南御旅所", "url": "https://maps.app.goo.gl/n8ddXExY18nFU3NY8", "lat": 34.855508, "lng": 138.323867}, {"label": "浜通り", "url": "https://maps.app.goo.gl/7sU3sYM74JhDUWMU9", "lat": 34.857743, "lng": 138.323687}, {"label": "北御旅所", "url": "https://maps.app.goo.gl/jQtywX7DthJRSvPi8", "lat": 34.863576, "lng": 138.324642}]