[{"label": "北御旅所", "url": "https://maps.app.goo.gl/jQtywX7DthJRSvPi8", "lat": 34.863576, "lng": 138.324642}, {"label": "魚市場御旅所", "url": "https://maps.app.goo.gl/xc5TQDrHjsgktMVC9", "lat": 34.864839, "lng": 138.326198}, {"label": "三区会所", "url": "https://maps.app.goo.gl/AeA29AyfD5pS25SX6", "lat": 34.865772, "lng": 138.323161}, {"label": "焼津市役所", "url": "https://maps.app.goo.gl/mwJk7MQUZnMvYL116", "lat": 34.866916, "lng": 138.322732}, {"label": "昭和通り", "url": "https://maps.app.goo.gl/srTUFfwJtyjvBpcT8", "lat": 34.867037, "lng": 138.322368}, {"label": "焼津御旅所", "url": "https://maps.app.goo.gl/ZLitTzhQcAkJ4fTv6", "lat": 34.865169, "lng": 138.316678}, {"label": "焼津神社", "url": "https://maps.app.goo.gl/Kcv3Fc85Fj2mbsUd7", "lat": 34.86592, "lng": 138.314616}]
